[{"name": "Nuances", "address": "Casino de Montreal, 1 Avenue du Casino", "categories": "Restaurants;French", "open_hours": "Monday: 5:00 PM - 11:00 PM, \nTuesday: 5:00 PM - 11:00 PM, \nWednesday: 5:00 PM - 11:00 PM, \nThursday: 5:00 PM - 11:00 PM, \nFriday: 4:30 PM - 11:00 PM, \nSaturday: 4:30 PM - 12:00 AM, \nSunday: 5:00 PM - 11:00 PM", "avg_stars": 4.3, "latitude": 45.5054811, "longitude": -73.5257797, "image": "/static/downloads/Nuances/Image_1.png"}, {"name": "Tukan Restaurant", "address": "85 Montreal Road", "categories": "Restaurants;Latin American", "open_hours": "Tuesday: 11:00 AM - 8:00 PM, \nWednesday: 11:00 AM - 8:00 PM, \nThursday: 11:00 AM - 8:00 PM, \nFriday: 11:00 AM - 9:00 PM, \nSaturday: 11:00 AM - 9:00 PM, \nSunday: 12:00 PM - 8:00 PM", "avg_stars": 4.0, "latitude": 45.4339532, "longitude": -75.6673131, "image": "/static/downloads/Tukan_Restaurant/Image_1.jpg"}, {"name": "altitude 737", "address": "1 Place Ville-Marie  Cathcart/Universit\u00e9   514 397 0737   1, Montreal", "categories": "Restaurants", "open_hours": "Not Available", "avg_stars": 4.0, "latitude": 45.5016889, "longitude": -73.567256, "image": "/static/downloads/altitude_737/Image_1.jpg"}, {"name": "Archibald Microbrasserie", "address": "Aeroport de Montreal, 975 Boulevard Rom\u00e9o-Vachon Nord", "categories": "Brasseries;Restaurants", "open_hours": "Not Available", "avg_stars": 3.5, "latitude": 45.4578596, "longitude": -73.7508919, "image": "/static/downloads/Archibald_Microbrasserie/Image_1.jpg"}, {"name": "Koryo Barbecue Cor\u00e9en", "address": "Place Montreal Trust, 1500 Avenue McGill College, Suite A-026", "categories": "Restaurants;Korean;Food Court", "open_hours": "Not Available", "avg_stars": 3.0, "latitude": 45.5023402, "longitude": -73.5723526, "image": "/static/downloads/Koryo_Barbecue_Cor\u00e9en/Image_1.jpg"}]