[{"name": "Pizza Nova", "address": "10045 Hurontario Street", "categories": "Restaurants;Pizza", "open_hours": "Monday: 11:00 AM - 1:00 AM, \nTuesday: 11:00 AM - 1:00 AM, \nWednesday: 11:00 AM - 1:00 AM, \nThursday: 11:00 AM - 1:00 AM, \nFriday: 11:00 AM - 2:00 AM, \nSaturday: 11:00 AM - 2:00 AM, \nSunday: 11:00 AM - 12:00 AM", "avg_stars": 4.8, "latitude": 43.7071105, "longitude": -79.7874934, "image": "/static/downloads/Pizza_Nova/Image_1.jpg"}, {"name": "Le Mousso", "address": "1023 Rue Ontario Est", "categories": "Nightlife;Tapas Bars;Tapas/Small Plates;American (Traditional);Canadian (New);Pubs;Bars;Restaurants", "open_hours": "Wednesday: 6:00 PM - 10:00 PM, \nThursday: 6:00 PM - 10:00 PM, \nFriday: 6:00 PM - 10:00 PM, \nSaturday: 6:00 PM - 10:00 PM", "avg_stars": 4.7, "latitude": 45.520015, "longitude": -73.56327, "image": "/static/downloads/Le_Mousso/Image_1.jpg"}, {"name": "Pamplemousse Cafe", "address": "1251 Rue Ontario E", "categories": "Breakfast & Brunch;Restaurants", "open_hours": "Not Available", "avg_stars": 4.7, "latitude": 45.521724, "longitude": -73.562224, "image": "/static/downloads/Pamplemousse_Cafe/Image_1.jpg"}, {"name": "Wawel", "address": "2543 Rue Ontario E", "categories": "Breakfast & Brunch;French;Food;Restaurants;Bakeries;Patisserie/Cake Shop", "open_hours": "Monday: 7:00 AM - 7:00 PM, \nTuesday: 7:00 AM - 8:00 PM, \nWednesday: 7:00 AM - 8:00 PM, \nThursday: 7:00 AM - 8:30 PM, \nFriday: 7:00 AM - 8:30 PM, \nSaturday: 8:00 AM - 5:30 PM, \nSunday: 8:00 AM - 4:30 PM", "avg_stars": 4.6, "latitude": 45.5329354, "longitude": -73.5528649, "image": "/static/downloads/Wawel/Image_1.jpg"}, {"name": "Ontario Street Cafe", "address": "2053 Ontario St", "categories": "Restaurants;Cafes;Nightlife;Sandwiches;American (Traditional);Bars", "open_hours": "Monday: 10:00 AM - 1:30 AM, \nTuesday: 10:00 AM - 1:30 AM, \nWednesday: 10:00 AM - 1:30 AM, \nThursday: 10:00 AM - 1:30 AM, \nFriday: 10:00 AM - 1:30 AM, \nSaturday: 10:00 AM - 1:30 AM, \nSunday: 10:00 AM - 1:30 AM", "avg_stars": 4.5, "latitude": 41.4985414, "longitude": -81.6921605, "image": "/static/downloads/Ontario_Street_Cafe/Image_1.jpg"}]