[{"name": "Pizzeria Bosco", "address": "Toronto Eaton Centre, 14 Queen Street W", "categories": "Restaurants;Pizza", "open_hours": "Not Available", "avg_stars": 4.3, "latitude": 43.6570927606, "longitude": -79.3875997169, "image": "/static/downloads/Pizzeria_Bosco/Image_1.jpg"}, {"name": "Citrus Restaurant and Lounge", "address": "The Grand Hotel & Suites Toronto, 225 Jarvis Street", "categories": "Breakfast & Brunch;Nightlife;Bars;Salad;Restaurants;American (New)", "open_hours": "Monday: 6:00 AM - 12:00 AM, \nTuesday: 6:00 AM - 12:00 AM, \nWednesday: 6:00 AM - 12:00 AM, \nThursday: 6:00 AM - 12:00 AM, \nFriday: 6:00 AM - 12:00 AM, \nSaturday: 6:00 AM - 12:00 AM, \nSunday: 6:00 AM - 12:00 AM", "avg_stars": 4.0, "latitude": 43.6564816, "longitude": -79.3737305, "image": "/static/downloads/Citrus_Restaurant_and_Lounge/Image_1.jpg"}, {"name": "Clockwork Coffee", "address": "36 Toronto Street", "categories": "Restaurants;Cafes;Food;Coffee & Tea", "open_hours": "Not Available", "avg_stars": 3.9, "latitude": 43.6506232, "longitude": -79.3764788, "image": "/static/downloads/Clockwork_Coffee/Image_1.jpg"}, {"name": "Lotus Tea House", "address": "Fo Guang Shan Temple Of Toronto, 6525 Millcreek Drive", "categories": "Vegetarian;Chinese;Restaurants", "open_hours": "Tuesday: 11:00 AM - 4:00 PM, \nWednesday: 11:00 AM - 4:00 PM, \nThursday: 11:00 AM - 4:00 PM, \nFriday: 11:00 AM - 4:00 PM, \nSaturday: 11:00 AM - 4:00 PM, \nSunday: 11:00 AM - 4:00 PM", "avg_stars": 3.9, "latitude": 43.590952, "longitude": -79.7429433, "image": "/static/downloads/Lotus_Tea_House/Image_1.png"}, {"name": "BLD Restaurant", "address": "36 Toronto Street", "categories": "Breakfast & Brunch;Canadian (New);American (New);Seafood;Restaurants", "open_hours": "Monday: 8:00 AM - 2:30 PM, \nTuesday: 8:00 AM - 2:30 PM, \nWednesday: 8:00 AM - 10:00 PM, \nThursday: 8:00 AM - 10:00 PM, \nFriday: 8:00 AM - 10:00 PM, \nSaturday: 5:30 PM - 10:00 PM", "avg_stars": 3.5, "latitude": 43.6506232, "longitude": -79.3764788, "image": "/static/downloads/noimage.jpg"}]