[{"name": "Espresso Bison", "address": "2267 Rue Ontario Est", "categories": "Restaurants;Food;Coffee & Tea;Cafes", "open_hours": "Monday: 7:30 AM - 4:00 PM, \nTuesday: 7:30 AM - 4:00 PM, \nWednesday: 7:30 AM - 4:00 PM, \nThursday: 7:30 AM - 4:00 PM, \nFriday: 7:30 AM - 4:00 PM, \nSaturday: 9:00 AM - 4:00 PM, \nSunday: 9:00 AM - 5:00 PM", "avg_stars": 4.8, "latitude": 45.5301909, "longitude": -73.5555225, "image": "/static/downloads/Espresso_Bison/Image_1.jpg"}, {"name": "Pamplemousse Cafe", "address": "1251 Rue Ontario E", "categories": "Breakfast & Brunch;Restaurants", "open_hours": "Not Available", "avg_stars": 4.7, "latitude": 45.521724, "longitude": -73.562224, "image": "/static/downloads/Pamplemousse_Cafe/Image_1.jpg"}, {"name": "Le Mousso", "address": "1023 Rue Ontario Est", "categories": "Nightlife;Tapas Bars;Tapas/Small Plates;American (Traditional);Canadian (New);Pubs;Bars;Restaurants", "open_hours": "Wednesday: 6:00 PM - 10:00 PM, \nThursday: 6:00 PM - 10:00 PM, \nFriday: 6:00 PM - 10:00 PM, \nSaturday: 6:00 PM - 10:00 PM", "avg_stars": 4.7, "latitude": 45.520015, "longitude": -73.56327, "image": "/static/downloads/Le_Mousso/Image_1.jpg"}, {"name": "Caf\u00e9 Nomade", "address": "Boxotel, 175 Rue Ontario E", "categories": "Coffee & Tea;Food;Restaurants;Cafes", "open_hours": "Not Available", "avg_stars": 4.6, "latitude": 45.513377, "longitude": -73.566326, "image": "/static/downloads/Caf\u00e9_Nomade/Image_1.jpg"}, {"name": "Wawel", "address": "2543 Rue Ontario E", "categories": "Breakfast & Brunch;French;Food;Restaurants;Bakeries;Patisserie/Cake Shop", "open_hours": "Monday: 7:00 AM - 7:00 PM, \nTuesday: 7:00 AM - 8:00 PM, \nWednesday: 7:00 AM - 8:00 PM, \nThursday: 7:00 AM - 8:30 PM, \nFriday: 7:00 AM - 8:30 PM, \nSaturday: 8:00 AM - 5:30 PM, \nSunday: 8:00 AM - 4:30 PM", "avg_stars": 4.6, "latitude": 45.5329354, "longitude": -73.5528649, "image": "/static/downloads/Wawel/Image_1.jpg"}]