[{"name": "Espresso Bison", "address": "2267 Rue Ontario Est", "categories": "Restaurants;Food;Coffee & Tea;Cafes", "open_hours": "Monday: 7:30 AM - 4:00 PM, \nTuesday: 7:30 AM - 4:00 PM, \nWednesday: 7:30 AM - 4:00 PM, \nThursday: 7:30 AM - 4:00 PM, \nFriday: 7:30 AM - 4:00 PM, \nSaturday: 9:00 AM - 4:00 PM, \nSunday: 9:00 AM - 5:00 PM", "avg_stars": 4.8, "latitude": 45.5301909, "longitude": -73.5555225, "image": "/static/downloads/Espresso_Bison/Image_1.jpg"}, {"name": "Caf\u00e9 Nomade", "address": "Boxotel, 175 Rue Ontario E", "categories": "Coffee & Tea;Food;Restaurants;Cafes", "open_hours": "Not Available", "avg_stars": 4.6, "latitude": 45.513377, "longitude": -73.566326, "image": "/static/downloads/Caf\u00e9_Nomade/Image_1.jpg"}, {"name": "La Taqueria", "address": "3650 Rue Ontario E", "categories": "Tex-Mex;Vegan;Latin American;Restaurants;Mexican", "open_hours": "Monday: 12:00 PM - 9:00 PM, \nTuesday: 12:00 PM - 9:00 PM, \nWednesday: 12:00 PM - 9:00 PM, \nThursday: 12:00 PM - 10:00 PM, \nFriday: 12:00 PM - 10:00 PM, \nSaturday: 12:00 PM - 9:00 PM, \nSunday: 12:00 PM - 9:00 PM", "avg_stars": 4.4, "latitude": 45.5456713696, "longitude": -73.5440193031, "image": "/static/downloads/La_Taqueria/Image_1.jpg"}, {"name": "Port 1 Cafe", "address": "1 Hurontario Street", "categories": "Coffee & Tea;Restaurants;Desserts;Food;Sandwiches", "open_hours": "Monday: 11:00 AM - 10:00 PM, \nTuesday: 4:00 PM - 9:00 PM, \nWednesday: 4:00 PM - 9:00 PM, \nThursday: 4:00 PM - 9:00 PM, \nFriday: 10:00 AM - 10:00 PM, \nSaturday: 10:00 AM - 10:00 PM, \nSunday: 12:00 PM - 8:00 PM", "avg_stars": 4.3, "latitude": 43.555768, "longitude": -79.582489, "image": "/static/downloads/Port_1_Cafe/Image_1.jpg"}, {"name": "La R\u00e9cr\u00e9ation", "address": "404 Rue Ontario E", "categories": "Art Galleries;Restaurants;Cafes;Coffee & Tea;Food;Shopping;Arts & Entertainment", "open_hours": "Monday: 9:00 AM - 10:00 PM, \nTuesday: 9:00 AM - 10:00 PM, \nWednesday: 9:00 AM - 12:00 AM, \nThursday: 9:00 AM - 10:00 PM, \nFriday: 9:00 AM - 12:00 AM, \nSaturday: 12:00 PM - 12:00 AM, \nSunday: 12:00 PM - 8:00 PM", "avg_stars": 4.3, "latitude": 45.5160749, "longitude": -73.5651244, "image": "/static/downloads/La_R\u00e9cr\u00e9ation/Image_1.jpg"}]