[{"name": "Citrus Restaurant and Lounge", "address": "The Grand Hotel & Suites Toronto, 225 Jarvis Street", "categories": "Breakfast & Brunch;Nightlife;Bars;Salad;Restaurants;American (New)", "open_hours": "Monday: 6:00 AM - 12:00 AM, \nTuesday: 6:00 AM - 12:00 AM, \nWednesday: 6:00 AM - 12:00 AM, \nThursday: 6:00 AM - 12:00 AM, \nFriday: 6:00 AM - 12:00 AM, \nSaturday: 6:00 AM - 12:00 AM, \nSunday: 6:00 AM - 12:00 AM", "avg_stars": 4.0, "latitude": 43.6564816, "longitude": -79.3737305, "image": "/static/downloads/Citrus_Restaurant_and_Lounge/Image_1.jpg"}, {"name": "Clockwork Coffee", "address": "36 Toronto Street", "categories": "Restaurants;Cafes;Food;Coffee & Tea", "open_hours": "Not Available", "avg_stars": 3.9, "latitude": 43.6506232, "longitude": -79.3764788, "image": "/static/downloads/Clockwork_Coffee/Image_1.jpg"}, {"name": "Upper Deck Bar", "address": "Toronto Island Marina, Centre Island", "categories": "Bars;Restaurants;Nightlife;Cocktail Bars;American (Traditional)", "open_hours": "Not Available", "avg_stars": 3.8, "latitude": 43.6236766256, "longitude": -79.3813701907, "image": "/static/downloads/Upper_Deck_Bar/Image_1.jpg"}, {"name": "BLD Restaurant", "address": "36 Toronto Street", "categories": "Breakfast & Brunch;Canadian (New);American (New);Seafood;Restaurants", "open_hours": "Monday: 8:00 AM - 2:30 PM, \nTuesday: 8:00 AM - 2:30 PM, \nWednesday: 8:00 AM - 10:00 PM, \nThursday: 8:00 AM - 10:00 PM, \nFriday: 8:00 AM - 10:00 PM, \nSaturday: 5:30 PM - 10:00 PM", "avg_stars": 3.5, "latitude": 43.6506232, "longitude": -79.3764788, "image": "/static/noimage.jpg"}, {"name": "Matisse Restaurant + Bar", "address": "90 Bloor St E, Toronto Marriott Bloor Yorkville", "categories": "Nightlife;American (New);Cocktail Bars;Bars;Canadian (New);Restaurants", "open_hours": "Monday: 6:30 AM - 1:00 PM, \nTuesday: 6:30 AM - 11:00 PM, \nWednesday: 6:30 AM - 11:00 PM, \nThursday: 6:30 AM - 11:00 PM, \nFriday: 6:30 AM - 11:00 PM, \nSaturday: 7:00 AM - 11:00 PM, \nSunday: 7:00 AM - 11:00 PM", "avg_stars": 3.2, "latitude": 43.6710596, "longitude": -79.3854774, "image": "/static/downloads/Matisse_Restaurant_+_Bar/Image_1.jpg"}]