[{"name": "Pamplemousse Cafe", "address": "1251 Rue Ontario E", "categories": "Breakfast & Brunch;Restaurants", "open_hours": "Not Available", "avg_stars": 4.7, "latitude": 45.521724, "longitude": -73.562224, "image": "/static/downloads/Pamplemousse_Cafe/Image_1.jpg"}, {"name": "Wawel", "address": "2543 Rue Ontario E", "categories": "Breakfast & Brunch;French;Food;Restaurants;Bakeries;Patisserie/Cake Shop", "open_hours": "Monday: 7:00 AM - 7:00 PM, \nTuesday: 7:00 AM - 8:00 PM, \nWednesday: 7:00 AM - 8:00 PM, \nThursday: 7:00 AM - 8:30 PM, \nFriday: 7:00 AM - 8:30 PM, \nSaturday: 8:00 AM - 5:30 PM, \nSunday: 8:00 AM - 4:30 PM", "avg_stars": 4.6, "latitude": 45.5329354, "longitude": -73.5528649, "image": "/static/downloads/Wawel/Image_1.jpg"}, {"name": "La Taqueria", "address": "3650 Rue Ontario E", "categories": "Tex-Mex;Vegan;Latin American;Restaurants;Mexican", "open_hours": "Monday: 12:00 PM - 9:00 PM, \nTuesday: 12:00 PM - 9:00 PM, \nWednesday: 12:00 PM - 9:00 PM, \nThursday: 12:00 PM - 10:00 PM, \nFriday: 12:00 PM - 10:00 PM, \nSaturday: 12:00 PM - 9:00 PM, \nSunday: 12:00 PM - 9:00 PM", "avg_stars": 4.4, "latitude": 45.5456713696, "longitude": -73.5440193031, "image": "/static/downloads/La_Taqueria/Image_1.jpg"}, {"name": "La Paryse", "address": "302 Rue Ontario E", "categories": "Burgers;Restaurants", "open_hours": "Not Available", "avg_stars": 4.3, "latitude": 45.5148358, "longitude": -73.5654183, "image": "/static/downloads/La_Paryse/Image_1.jpg"}, {"name": "Bagatelle", "address": "4323 Rue Ontario E", "categories": "Caterers;Breakfast & Brunch;French;Restaurants;Event Planning & Services", "open_hours": "Monday: 5:00 PM - 10:00 PM, \nTuesday: 5:00 PM - 10:00 PM, \nWednesday: 5:00 PM - 10:00 PM, \nThursday: 5:00 PM - 10:00 PM, \nFriday: 5:00 PM - 10:00 PM, \nSaturday: 5:00 PM - 10:00 PM, \nSunday: 5:00 PM - 10:00 PM", "avg_stars": 4.2, "latitude": 45.5528219, "longitude": -73.5396242, "image": "/static/downloads/Bagatelle/Image_1.jpg"}]