[{"name": "Pizza Nova", "address": "10045 Hurontario Street", "categories": "Restaurants;Pizza", "open_hours": "Monday: 11:00 AM - 1:00 AM, \nTuesday: 11:00 AM - 1:00 AM, \nWednesday: 11:00 AM - 1:00 AM, \nThursday: 11:00 AM - 1:00 AM, \nFriday: 11:00 AM - 2:00 AM, \nSaturday: 11:00 AM - 2:00 AM, \nSunday: 11:00 AM - 12:00 AM", "avg_stars": 4.8, "latitude": 43.7071105, "longitude": -79.7874934, "image": "/static/downloads/Pizza_Nova/Image_1.jpg"}, {"name": "Pamplemousse Cafe", "address": "1251 Rue Ontario E", "categories": "Breakfast & Brunch;Restaurants", "open_hours": "Not Available", "avg_stars": 4.7, "latitude": 45.521724, "longitude": -73.562224, "image": "/static/downloads/Pamplemousse_Cafe/Image_1.jpg"}, {"name": "Wawel", "address": "2543 Rue Ontario E", "categories": "Breakfast & Brunch;French;Food;Restaurants;Bakeries;Patisserie/Cake Shop", "open_hours": "Monday: 7:00 AM - 7:00 PM, \nTuesday: 7:00 AM - 8:00 PM, \nWednesday: 7:00 AM - 8:00 PM, \nThursday: 7:00 AM - 8:30 PM, \nFriday: 7:00 AM - 8:30 PM, \nSaturday: 8:00 AM - 5:30 PM, \nSunday: 8:00 AM - 4:30 PM", "avg_stars": 4.6, "latitude": 45.5329354, "longitude": -73.5528649, "image": "/static/downloads/Wawel/Image_1.jpg"}, {"name": "341 Pizza", "address": "2325 Hurontario Street", "categories": "Pizza;Restaurants", "open_hours": "Not Available", "avg_stars": 4.3, "latitude": 43.5751918, "longitude": -79.6074216, "image": "/static/downloads/341_Pizza/Image_1.jpg"}, {"name": "La Paryse", "address": "302 Rue Ontario E", "categories": "Burgers;Restaurants", "open_hours": "Not Available", "avg_stars": 4.3, "latitude": 45.5148358, "longitude": -73.5654183, "image": "/static/downloads/La_Paryse/Image_1.jpg"}]