 [
    {
      "name": "Baja Fresh",
      "address": "8780 W Charleston Blvd, Ste 100",
      "categories": "Restaurants;Mexican",
      "open_hours": "Monday: 10:00 AM - 9:30 PM, \nTuesday: 10:00 AM - 9:30 PM, \nWednesday: 10:00 AM - 9:30 PM, \nThursday: 10:00 AM - 9:30 PM, \nFriday: 10:00 AM - 9:30 PM, \nSaturday: 10:00 AM - 9:30 PM, \nSunday: 10:00 AM - 9:30 PM",
      "avg_stars": 4.0,
      "latitude": 36.1594825,
      "longitude": -115.2874508
    },
    {
      "name": "Husongs Cantina",
      "address": "3930 Las Vegas Blvd",
      "categories": "Mexican;Restaurants",
      "open_hours": "Not Available",
      "avg_stars":3.0,
      "latitude": 36.086668,
      "longitude": -115.172986
    },
    {
      "name": "Taqueria La Herradura",
      "address": "1436 E Charleston Blvd",
      "categories": "Restaurants;Mexican",
      "open_hours": "Monday: 8:00 AM - 9:00 PM, \nTuesday: 8:00 AM - 9:00 PM, \nWednesday: 8:00 AM - 9:00 PM, \nThursday: 8:00 AM - 9:00 PM, \nFriday: 8:00 AM - 9:00 PM, \nSaturday: 8:00 AM - 9:00 PM, \nSunday: 8:00 AM - 9:00 PM",
      "avg_stars": 2.0,
      "latitude": 36.1586404699,
      "longitude": -115.134254913
    },
    {
      "name": "Best Meat",
      "address": "2362 Lexington St",
      "categories": "Soul Food;Restaurants",
      "open_hours": "",
      "avg_stars": 5.0,
      "latitude": 36.2027670875,
      "longitude": -115.158089944
    },
    {
      "name": "El Cochinito Contento",
      "address": "3425 E Flamingo Rd",
      "categories": "Restaurants;Mexican",
      "open_hours": "",
      "avg_stars": 1.0,
      "latitude": 36.1146968537,
      "longitude": -115.100319125
    }
  ]